[
  {
    "Name": "Авиастроительная",
    "NameTatar": "Авиатөзелеш",
    "Lat": 55.855851,
    "Lon": 49.084498,
    "LineColor": "#FF0000",
    "Line": "Первая",
    "Order": 0
  },
  {
    "Name": "Северный вокзал",
    "NameTatar": "Төньяк вокзал",
    "Lat": 55.841887,
    "Lon": 49.081985,
    "LineColor": "#FF0000",
    "Line": "Первая",
    "Order": 1
  },
  {
    "Name": "Яшьлек",
    "NameTatar": "Яшьлек",
    "Lat": 55.828039,
    "Lon": 49.082483,
    "LineColor": "#FF0000",
    "Line": "Первая",
    "Order": 2
  },
  {
    "Name": "Козья слобода",
    "NameTatar": "Кәҗә Бистәсе",
    "Lat": 55.817470,
    "Lon": 49.098104,
    "LineColor": "#FF0000",
    "Line": "Первая",
    "Order": 3
  },
  {
    "Name": "Кремлёвская",
    "NameTatar": "Кремль",
    "Lat": 55.795922,
    "Lon": 49.106578,
    "LineColor": "#FF0000",
    "Line": "Первая",
    "Order": 4
  },
  {
    "Name": "Площадь Тукая",
    "NameTatar": "Тукай Мәйданы",
    "Lat": 55.786067,
    "Lon": 49.124549,
    "LineColor": "#FF0000",
    "Line": "Первая",
    "Order": 5
  },
  {
    "Name": "Суконная слобода",
    "NameTatar": "Сукно бистәсе",
    "Lat": 55.777099,
    "Lon": 49.142283,
    "LineColor": "#FF0000",
    "Line": "Первая",
    "Order": 6
  },
  {
    "Name": "Аметьево",
    "NameTatar": "Әмәт",
    "Lat": 55.765170,
    "Lon": 49.166507,
    "LineColor": "#FF0000",
    "Line": "Первая",
    "Order": 7
  },
  {
    "Name": "Горки",
    "NameTatar": "Горки",
    "Lat": 55.760218,
    "Lon": 49.190880,
    "LineColor": "#FF0000",
    "Line": "Первая",
    "Order": 8
  },
  {
    "Name": "Проспект Победы",
    "NameTatar": "Җиңү проспекты",
    "Lat": 55.750056,
    "Lon": 49.208739,
    "LineColor": "#FF0000",
    "Line": "Первая",
    "Order": 9
  },
  {
    "Name": "Дубравная",
    "NameTatar": "Дубравная",
    "Lat": 55.743570,
    "Lon": 49.219217,
    "LineColor": "#FF0000",
    "Line": "Первая",
    "Order": 10
  }
]